[
  {
    "title": "ê½ƒë§ˆë¦¬ë¦¬í•„ìŠ¤í† ì–´",
    "info": "ì „êµ­ ìµœì´ˆ ì„¸ì œì „ìš© ë¦¬í•„ë§¤ì¥, ê½ƒë§ˆë¦¬ ë¦¬í•„ìŠ¤í† ì–´",
    "lat": 33.484055,
    "lng": 126.547821,
    "rat": 5.0,
    "address": "ì œì£¼íŠ¹ë³„ìì¹˜ë„ ì œì£¼ì‹œ ì¸ë‹¤11ê¸¸ 29 1ì¸µ (ì•„ë¼ì¼ë™)",
    "tel": "064-755-6883",
    "site": "https://www.instagram.com/flowermari.in/"
  },
  {
    "title": "í˜‘ë™ìƒíšŒ",
    "info": "ì œë¡œì›¨ì´ìŠ¤íŠ¸, ìœ ê¸°ë†, ì¹œí™˜ê²½ì„ í‘œë°©í•˜ëŠ” ìƒí˜‘ <í˜‘ë™ìƒíšŒ>",
    "lat": 37.669268,
    "lng": 127.112345,
    "rat": 4.5,
    "address": "ê²½ê¸° ë‚¨ì–‘ì£¼ì‹œ ë•ì†¡3ë¡œ 27 (ë³„ë‚´ë™) ìœ„ìŠ¤í…Œì´ ì•„íŒŒíŠ¸ìƒê°€ ",
    "tel": "",
    "site": "https://www.instagram.com/cooperation_market/"
  },
  {
    "title": "ì‚°ë‘ë¡œìƒì  (ì¼ì‚° ì œë¡œì›¨ì´ìŠ¤íŠ¸ ìˆ)",
    "info": "ì œë¡œì›¨ì´ìŠ¤íŠ¸ ë¬¼ê±´ ì‡¼í•‘ë„ í•˜ê³ , ì†Œì¤‘í•œ ì´ë“¤ì„ ìœ„í•œ ì„ ë¬¼ë„ ì‚¬ ë³´ì„¸ìš”",
    "lat": 37.667344,
    "lng": 126.784691,
    "rat": "",
    "address": "ê²½ê¸°ë„ ê³ ì–‘ì‹œ ì¼ì‚°ë™êµ¬ ì‚°ë‘ë¡œ 109ë²ˆê¸¸ 32 ì •ë°œì‚°ë™ 1346-6",
    "tel": "",
    "site": "https://www.instagram.com/sanduro_zero/"
  },
  {
    "title": "ì˜¤ì¦ˆíƒ€ìš´",
    "info": "ì§€ì—­ê³¼ ë„ì‹œë¥¼ ì‡ê³  ì‚¬ëŒì™€ í™˜ê²½ì„ ì‡ëŠ” ìš°ë¦¬ì˜ ì œë¡œì›¨ì´ìŠ¤íŠ¸ íƒ€ìš´.ğŸŒğŸ¡",
    "lat": 0,
    "lng": 0,
    "rat": 5.0,
    "address": "ì„œìš¸ ë§ˆí¬êµ¬ ë™êµë¡œ 272-8 2ì¸µ (ì—°ë‚¨ë™)",
    "tel": "",
    "site": "https://www.instagram.com/oz_town/"
  },
  {
    "title": "í‘¸ë¥¸ë³„ìƒì (ì†Œì‹¬í•œí† ë¼ê³µë°© ë‚´ ìƒµì¸ìƒµ)",
    "info": "ì²œì•ˆ ìµœì´ˆ ì œë¡œì›¨ì´ìŠ¤íŠ¸ìƒµ, í‘¸ë¥¸ë³„ìƒì ì—ì„œ ìŠ¬ê¸°ë¡œìš´ ì§€êµ¬ìƒí™œì„ í•´ë³´ì•„ìš”",
    "lat": 36.782651,
    "lng": 127.161318,
    "rat": "",
    "address": "ì¶©ë‚¨ ì²œì•ˆì‹œ ë™ë‚¨êµ¬ ì²­ìˆ˜12ë¡œ 41-51 (ì‚¼ë£¡ë™)",
    "tel": "",
    "site": "https://www.instagram.com/pureun_byul/"
  },
  {
    "title": "ì„±ë¯¸ì‚°ë§ˆì„íšŒê´€(ì˜¨ë™ë„¤ìˆœí™˜ê±°ì )",
    "info": "ì„±ì‚°1ë™, ì„±ë¯¸ì‚°ë§ˆì„ì„ ì¤‘ì‹¬ìœ¼ë¡œ ì“°ë ˆê¸°ëŠ” ì¤„ì´ê³ , ì§€êµ¬ì™€ ê³µì¡´í•˜ëŠ” ë°©ë²•ì„ ì°¾ì•„ë³´ì•„ìš”",
    "lat": 37.558572,
    "lng": 126.909673,
    "rat": 5.0,
    "address": "ì„œìš¸ ë§ˆí¬êµ¬ ì„±ë¯¸ì‚°ë¡œ3ê¸¸ 2 (ì„±ì‚°ë™)",
    "tel": "02-3144-6884",
    "site": "https://sungmisan.org/"
  },
  {
    "title": "ì„±ë‚¨ ìì›ìˆœí™˜ê°€ê²Œ ì‹ í¥ì´re100",
    "info": "ì¬í™œìš© ê°€ëŠ¥í•œ ì“°ë ˆê¸°ë¥¼ ê°€ì ¸ì˜¤ë©´ í˜„ê¸ˆì´ë‚˜ ì§€ì—­í™”íë¥¼ ë“œë¦½ë‹ˆë‹¤!",
    "lat": 37.448131,
    "lng": 127.143701,
    "rat": 5.0,
    "address": "ê²½ê¸° ì„±ë‚¨ì‹œ ìˆ˜ì •êµ¬ ì‹ í¥ë™ 98",
    "tel": "031-751-5515",
    "site": ""
  },
  {
    "title": "ë¦¬ì‚¬ì´í´ë§ ë§ˆì¼“",
    "info": "ì„¸ìƒì—ì„œ ê°€ì¥ ì°©í•œ ê°€ê²Œ, ì¬í™œìš©í’ˆì„ ë°˜ë‚©í•˜ê³  ìƒˆ ê²ƒìœ¼ë¡œ êµì²´í•´ë³´ì„¸ìš”",
    "lat": 37.665418,
    "lng": 127.067068,
    "rat": "",
    "address": "ì„œìš¸ ë…¸ì›êµ¬ ìƒê³„ë™ 452-1",
    "tel": "",
    "site": ""
  },
  {
    "title": "ì§€êµ¬ë³„ì„œì ",
    "info": "ë…ë¦½ì¶œíŒë¬¼,í™˜ê²½,ë‹¤ì–‘ì„±/ë…ì„œëª¨ì„ì„ í•  ìˆ˜ ìˆëŠ” ì§€êµ¬ë³„ì„œì ì…ë‹ˆë‹¤",
    "lat": 34.79397,
    "lng": 126.379733,
    "rat": "",
    "address": "ì „ë‚¨ ëª©í¬ì‹œ ìˆ˜ë¬¸ë¡œ 63 (ë‚¨êµë™)",
    "tel": "010-5499-3511",
    "site": "https://www.instagram.com/z9books/"
  },
  {
    "title": "ì§€êµ¬ì¸ì˜ë†€ì´í„°",
    "info": "ìˆ˜ê³µì˜ˆì‘ê°€ë‹˜ë“¤ì˜ ë¦¬ë¹™. ì•…ì„¸ì‚¬ë¦¬. ìƒí™œì†Œí’ˆ, ì•„íŠ¸ìƒí’ˆ ë“¤ë¡œ ë„ì‹¬ì†ì—ì„œ ëŠê¸‹í•˜ê³ , ì—¬ìœ ë¡­ê³ , ììœ ë¡œìš´ í•˜ë£¨ì˜ ê³¨ëª©ì„ ê±¸ì–´ë³´ì„¸ìš”.",
    "lat": 37.283281,
    "lng": 127.01447,
    "rat": "",
    "address": "ê²½ê¸° ìˆ˜ì›ì‹œ íŒ”ë‹¬êµ¬ ì‹ í’ë¡œ23ë²ˆê¸¸ 4 1ì¸µ (ì‹ í’ë™)",
    "tel": "",
    "site": "https://www.instagram.com/earthy_play/"
  },
  {
    "title": "ì•„ë¡œë§ˆí‹°ì¹´ ì œë¡œìŠ¤í…Œì´ì…˜",
    "info": "ì§€ì† ê°€ëŠ¥í•œ í™˜ê²½ê³¼ ë·°í‹°ë¥¼ ì§€í–¥í•˜ëŠ” ì•„ë¡œë§ˆí‹°ì¹´ ë¸Œëœë“œ ì² í•™ì„ ë§Œë‚˜ë³¼ ìˆ˜ ìˆëŠ” ë³µí•©ë¬¸í™” ê³µê°„",
    "lat": 37.52074,
    "lng": 127.019409,
    "rat": "",
    "address": "ì„œìš¸ ê°•ë‚¨êµ¬ ë„ì‚°ëŒ€ë¡œ1ê¸¸ 62 1ì¸µ (ì‹ ì‚¬ë™)",
    "tel": "02-1600-3689",
    "site": "https://aromatica.co.kr/brand/zero_station.html"
  },
  {
    "title": "ê´‘ì•ˆì„¸íƒì†Œ",
    "info": "ë¶€ì‚° ê´‘ì•ˆë¦¬ ì¹œí™˜ê²½ ë¹¨ë˜ë°©ê³¼ ì§€êµ¬ë¥¼ ê¹¨ë—í•˜ê²Œ, ì§€êµ¬ì„¸íƒì†ŒğŸŒ",
    "lat": 35.162862,
    "lng": 129.108565,
    "rat": 5.0,
    "address": "ë¶€ì‚° ìˆ˜ì˜êµ¬ ë¯¼ë½ë¡œ33ë²ˆê¸¸ 5 (ë¯¼ë½ë™)",
    "tel": "",
    "site": "https://www.instagram.com/gwangan_setakso/"
  },
  {
    "title": "ìš©ê¸°ë‚´ê°€ê²Œ",
    "info": "ì§ì ‘ ë†ì‚°ë¬¼ì„ ê°€ì ¸ì™€ ê¾¸ëŸ¬ë¯¸ í˜•íƒœë¡œ íŒë§¤í•˜ê±°ë‚˜ ì¥í„°ë¥¼ ì—´ì–´ ì¼íšŒìš©í’ˆ ì—†ëŠ” ì¥ë³´ê¸°",
    "lat": 37.335535,
    "lng": 127.092701,
    "rat": "",
    "address": "ê²½ê¸° ìš©ì¸ì‹œ ìˆ˜ì§€êµ¬ ìˆ˜í’ë¡œ131ë²ˆê¸¸ 8 (ë™ì²œë™)",
    "tel": "",
    "site": ""
  },
  {
    "title": "1.5ë„ì”¨",
    "info": "ì¹œí™˜ê²½ ì œí’ˆ íŒë§¤ì™€ ì•¡ì²´ì„¸ì œëŠ” ìš©ê¸°ë¡œ ì†Œë¶„í•˜ì—¬ íŒë§¤, ì¹´í˜ë„ ìˆë‹µë‹ˆë‹¤! ",
    "lat": 37.483529,
    "lng": 126.912628,
    "rat": "",
    "address": "ì„œìš¸ ê´€ì•…êµ¬ ì¡°ì›ë¡œ18ê¸¸ 15 (ì‹ ë¦¼ë™)",
    "tel": "010-9201-9173",
    "site": "https://www.instagram.com/1.5_do_c/?igshid=1igxgt234nfxa"
  },
  {
    "title": "ë‹¨ì •",
    "info": "ê±´ê°•í•œ ë¨¹ì„ê±°ë¦¬ì™€ ì‚´ë¦¼ê±°ë¦¬ì— ëŒ€í•´ ìƒê°í•˜ëŠ” ì¹´í˜ ì•¤ ìƒµ",
    "lat": 35.83632,
    "lng": 128.584691,
    "rat": "",
    "address": "ëŒ€êµ¬ ë‚¨êµ¬ ììœ 6ê¸¸ 11-12 1ì¸µ (ëŒ€ëª…ë™)",
    "tel": "https://www.instagram.com/_danjung/?igshid=1adn97x5cnqrx"
  },
  {
    "title": "í˜‘ë™í”Œë«í¼ì¹´í˜ì´ì›ƒ",
    "info": "ë™ë„¤ìƒì  ê³¨ëª©ìƒê¶Œ ì œë¡œì›¨ì´ìŠ¤íŠ¸ ë¬´í¬ì¥ê°€ê²Œ",
    "lat": 37.579952,
    "lng": 126.928095,
    "rat": 5.0,
    "address": "ì„œìš¸ ì„œëŒ€ë¬¸êµ¬ ê°€ì¢Œë¡œ 77 (í™ì€ë™)",
    "tel": "070-8118-0326",
    "site": "https://www.facebook.com/witheeut/"
  },
  {
    "title": "ì¹œí•œê°€ê²Œ",
    "info": "ì¹œí™˜ê²½ ì œí’ˆì„ íŒë§¤í•˜ëŠ” ë‚¨ì–‘ì£¼ í•«í”Œ, ì¹œí•œê°€ê²Œ",
    "lat": 37.655113,
    "lng": 127.247925,
    "rat": "",
    "address": "ê²½ê¸° ë‚¨ì–‘ì£¼ì‹œ í˜¸í‰ë™ 650-9",
    "tel": "",
    "site": "https://www.instagram.com/friendlystore_namyangju/"
  },
  {
    "title": "ì˜¬ë°”ë¥¸ìƒì ",
    "info": "í•©ë¦¬ì  ì†Œë¹„ìì˜ ê±´ê°•ì„ ìœ„í•œ ë˜‘ë˜‘í•œ ì„ íƒ! ì˜¬ë°”ë¥¸ ìƒì  ì…ë‹ˆë‹¤",
    "lat": 37.190672,
    "lng": 127.080014,
    "rat": "",
    "address": "ê²½ê¸° í™”ì„±ì‹œ 10ìš©ì‚¬ë¡œ 563 (ë°˜ì†¡ë™)",
    "tel": "",
    "site": "https://www.instagram.com/the_right_marker/"
  },
  {
    "title": "ì§€êµ¬ì‚´ë¦¼í„°",
    "info": "ê¸°í›„ìœ„ê¸° ëŒ€ì‘ì„ ìœ„í•œ ì—ë„ˆì§€ì „í™˜ê³¼ ì¼ìƒìƒí™œì˜ ì „í™˜ì„ ìœ„í•œ ì¥ì†Œì…ë‹ˆë‹¤",
    "lat": 37.544268,
    "lng": 126.873974,
    "rat": 5.0,
    "address": "ì„œìš¸ ì–‘ì²œêµ¬ ëª©ë™ì¤‘ì•™ë¶ë¡œ16ê¸¸ 41 1ì¸µ (ëª©ë™)",
    "tel": "070-7670-1004",
    "site": "https://www.instagram.com/jigusallim.ter/"
  },
  {
    "title": "ì•„í† ëª¨ìŠ¤",
    "info": "ì¹œí™˜ê²½ ë¬¼í’ˆì„ íŒë§¤í•˜ê³  ë¦¬í•„ìŠ¤í…Œì´ì…˜ì„ í†µí•´ ì•¡ìƒì„¸ì œ, ë¨¹ê±°ë¦¬ë¥¼ ì¦ê²¨ë³´ì•„ìš”",
    "lat": 37.591082,
    "lng": 127.004378,
    "rat": 5.0,
    "address": "ì„œìš¸ ì„±ë¶êµ¬ ì„±ë¶ë¡œ8ê¸¸ 11 1ì¸µ 101í˜¸ (ì„±ë¶ë™)",
    "tel": "02-6012-2102",
    "site": "https://www.atomos-store.kr/"
  },
  {
    "title": "ì•„ë¦„ë‹¤ìš´ê°€ê²Œ ì†¡íŒŒê°€ë½ì ",
    "info": "ì¬ì‚¬ìš©í’ˆë¿ ì•„ë‹ˆë¼ ì—ì½”íŒŒí‹°ë©”ì•„ë¦¬ ìƒí’ˆë„ ëª¨ë‘ í•œ ê³³ì—ì„œ ì‚¬ì!",
    "lat": 37.494812,
    "lng": 127.121915,
    "rat": "",
    "address": "ì„œìš¸ ì†¡íŒŒêµ¬ ì¤‘ëŒ€ë¡œ 127 1ì¸µ 109í˜¸ (ê°€ë½ë™)",
    "tel": "",
    "site": "http://www.beautifulstore.org/"
  },
  {
    "title": "ë‚˜ë§ˆìŠ¤ë–¼ ë¯¼ë°•",
    "info": "ì‚¬ëŒê³¼ ì§€êµ¬ ëª¨ë‘ë¥¼ ìƒê°í•˜ëŠ” ê½ƒë§ˆë¦¬ ì„¸ì œë¥¼ ì‚¬ìš©í•˜ëŠ” ìê·¸ë§ˆí•œ í•œì˜¥ ë¯¼ë°•",
    "lat": 35.835128,
    "lng": 129.212979,
    "rat": 5.0,
    "address": "ê²½ë¶ ê²½ì£¼ì‹œ ì²¨ì„±ë¡œ99ë²ˆê¸¸ 22-4 (í™©ë‚¨ë™)",
    "tel": "",
    "site": "https://www.instagram.com/namaste_gyeongju/"
  },
  {
    "title": "ì§€êµ¬ê³µë°©",
    "info": "ì•„ì´ìŠ¤íŒ©, ì»¤í”¼ì°Œêº¼ê¸°, í”Œë¼ìŠ¤í‹±ë³‘ëšœê»‘ì„ ìˆ˜ê±°í•˜ì—¬ ì¬ì‚¬ìš©í•˜ì!",
    "lat": 35.991529,
    "lng": 129.405652,
    "rat": "",
    "address": "ê²½ë¶ í¬í•­ì‹œ ë‚¨êµ¬ ì²­ë¦¼ë™ 1178-15",
    "tel": "",
    "site": "https://www.instagram.com/jiguprotect.zerowaste/"
  },
  {
    "title": "ë³„ì—ì½”ìƒì ",
    "info": "ë…¸í”Œë¼ìŠ¤í‹±ê³¼ í¬ì¥ìµœì†Œí™”, ì¬í™œìš© ê°€ëŠ¥í•œ ë¬¼ê±´ë“¤ë¡œ ì§€êµ¬í™˜ê²½ë³´í˜¸ì— ë‹¤ê°™ì´ ìš©ê¸°ë‚´ ë³´ì•„ìš”",
    "lat": 37.258838,
    "lng": 127.040509,
    "rat": 5.0,
    "address": "ê²½ê¸° ìˆ˜ì›ì‹œ ì˜í†µêµ¬ íš¨ì›ë¡œ358ë²ˆê¸¸ 7-2 101í˜¸ (ë§¤íƒ„ë™)",
    "tel": "031-8002-7900",
    "site": "https://www.instagram.com/byul_ecoshop/"
  },
  {
    "title": "ì°©í•´ê°€ì§€êµ¬",
    "info": "ë¶ˆí•„ìš”í•œ í¬ì¥ì¬ ì—†ì´ ì§ì ‘ ê°€ì ¸ì˜¨ ìš©ê¸°ì— í•„ìš”í•œ ë§Œí¼ ë¬¼í’ˆê³¼ ì‹ì¬ë£Œë¥¼ ë‹´ì•„ê°ˆ ìˆ˜ ìˆëŠ” ê°€ê²Œ",
    "lat": 35.551536,
    "lng": 129.266998,
    "rat": 5.0,
    "address": "ìš¸ì‚° ë‚¨êµ¬ ì‚¼í˜¸ë¡œ7ë²ˆê¸¸ 25 (ë¬´ê±°ë™)",
    "tel": "",
    "site": "https://www.instagram.com/jigu_suda/"
  },
  {
    "title": "ì±„ì›€ì†Œ",
    "info": "ì¬ì‚¬ìš© ë¬¼í’ˆì„ êµ¬ë§¤í•´ë³´ê³  ìš©ê¸°ë‚´ ì±Œë¦°ì§€ì— ì§ì ‘ ì°¸ì—¬í•´ë³´ì„¸ìš”!",
    "lat": 37.486386,
    "lng": 126.559379,
    "rat": "",
    "address": "ì¸ì²œ ì¤‘êµ¬ í•˜ëŠ˜ë‹¬ë¹›ë¡œ 78 ì˜ì¢… íë§í”„ë¼ì 108í˜¸",
    "tel": "070-8065-2776",
    "site": "https://www.instagram.com/chaeum_refillshop/"
  },
  {
    "title": "ë§ˆì¼“ë°œê²¬",
    "info": "ì§€ì†ê°€ëŠ¥í•œ ë¼ì´í”„ìŠ¤íƒ€ì¼ í”Œë«í¼, ë§ˆì¼“ë°œê²¬ì—ì„œ ì¬ì‚¬ìš© ë¬¼í’ˆì„ ì§ì ‘ ë§Œë“¤ì–´ë³´ì„¸ìš”!",
    "lat": 37.38813,
    "lng": 126.996851,
    "rat": 5.0,
    "address": "ê²½ê¸° ì˜ì™•ì‹œ ë°±ìš´ë¡œ 587-1 1ì¸µ (í¬ì¼ë™)",
    "tel": "070-7755-5182",
    "site": "https://www.instagram.com/marketbalgyun/"
  },
  {
    "title": "ìˆ²ì„ê³µë°©",
    "info": "ë¬´í¬ì¥ê°€ê²Œ ë° ì“°ë ˆê¸°ë¥¼ ì¤„ì´ê¸° ìœ„í•œ ë˜ì‚´ë¦¼ë°”ëŠì§ˆ, ì¼ìƒì„ ì•„ë¦„ë‹µê²Œ í•˜ëŠ” ììˆ˜ë°”ëŠì§ˆ ìˆ˜ì—…ì„ ìš´ì˜í•˜ê³  ìˆì–´ìš”",
    "lat": 35.845498,
    "lng": 129.21288,
    "rat": "",
    "address": "ê²½ë¶ ê²½ì£¼ì‹œ í™”ë‘ë¡œ107ë²ˆê¸¸ 10 1ì¸µ (ë™ë¶€ë™)",
    "tel": "",
    "site": "https://www.instagram.com/soopeul_/"
  },
  {
    "title": "í”Œë¼í”„ë¦¬",
    "info": "ì‚¬ë‹¹ë™ ì œë¡œì›¨ì´ìŠ¤íŠ¸ìƒµ, ì¹œí™˜ê²½ ì œí’ˆìœ¼ë¡œ ì§€êµ¬ë¥¼ ì§€ì¼œë³´ì•„ìš”",
    "lat": 37.490586,
    "lng": 126.982173,
    "rat": "",
    "address": "ì„œìš¸ ë™ì‘êµ¬ ë™ì‘ëŒ€ë¡œ 157-4 ì‚¬ë‹¹ë™ 79-29",
    "tel": "",
    "site": "https://www.instagram.com/plaafree/"

  },
  {
    "title": "ì†Œë¡œì†Œë¡œ",
    "info": "ì´ì›ƒì„ ìœ„í•œ ì„¸ì œë¦¬í•„ìƒµ, ì—¬í–‰ìë¥¼ ìœ„í•œ ì œë¡œì›¨ì´ìŠ¤íŠ¸ìƒì . ì†ë‹˜ë“¤ ì´ì›ƒë“¤ê³¼ í•¨ê»˜ í™˜ê²½ì— í•´ë¥¼ ëœ ë¼ì¹  ìˆ˜ ìˆëŠ” ë°©ë²•ì„ ê¶ë¦¬í•˜ê³  ì‹¤ì²œí•˜ëŠ” ì¤‘ì…ë‹ˆë‹¤",
    "lat": 33.471198,
    "lng": 126.786697,
    "rat": 4.5,
    "address": "ì œì£¼ ì œì£¼ì‹œ êµ¬ì¢Œì ì†¡ë‹¹7ê¸¸ 3 (êµ¬ì¢Œì ì†¡ë‹¹ë¦¬)",
    "tel": "010-3679-9938",
    "site": "https://www.instagram.com/socoop.with/?hl=ko"
  },
  {
    "title": "ëª¨ì•…ì‚°ì˜ì•„ì¹¨",
    "info": "ìˆ™ë°•ê°ì˜ í¸ì˜ë¥¼ ì¡´ì¤‘í•˜ë©° ì‚¬ê³ ì˜ í™•ì¥ì„ ë•ëŠ” ì œë¡œì›¨ì´ìŠ¤íŠ¸ ìˆ™ì†Œë¥¼ ì§€í–¥í•©ë‹ˆë‹¤.",
    "lat": 35.765962,
    "lng": 127.089676,
    "rat": "",
    "address": "ì „ë¶ ì „ì£¼ì‹œ ì™„ì‚°êµ¬ ì‚¼ì²œ3ë™ ì¤‘ì¸2ê¸¸ 25-48 (ì¤‘ì¸ë™)",
    "tel": "010-9286-7975",
    "site": "https://www.instagram.com/travel_moa/?hl=ko"
  },
  {
    "title": "ì œë¡œì›¨ì´ìŠ¤íŠ¸ í¥ë¶„ìƒ‰",
    "info": "ì¹œí™˜ê²½ ì œí’ˆ íŒë§¤ë¡œ ì‰½ê²Œ ì œë¡œì›¨ì´ìŠ¤íŠ¸ ì‹¤ì²œí•˜ì!",
    "lat": 35.978278,
    "lng": 126.716327,
    "rat": 5.0,
    "address": "ì „ë¶ êµ°ì‚°ì‹œ í’ë¬¸2ê¸¸ 5-2",
    "tel": "010-6833-8770",
    "site": "https://www.instagram.com/m1d.zerowaste/"
  },
  {
    "title": "ë³´íƒ¬ìƒì ",
    "info": "ë˜ì‚´ë¦¼ ì œí’ˆê³¼ ì œë¡œì›¨ì´ìŠ¤íŠ¸ ë¬¼í’ˆì„ íŒë§¤í•˜ê³ ,í™˜ê²½êµìœ¡,ìº í˜ì¸ ë“± í™˜ê²½ìš´ë™ì˜ í”Œë«í¼ì´ ë˜ê³ ì í•©ë‹ˆë‹¤!",
    "lat": 37.601257,
    "lng": 127.076795,
    "rat": 5.0,
    "address": "ì„œìš¸ ì¤‘ë‘êµ¬ ë´‰í™”ì‚°ë¡œ22ê¸¸ 2 1ì¸µ (ì¤‘í™”ë™)",
    "tel": "010-2175-2026",
    "site": "https://www.instagram.com/botaemsangjeom/"
  },
  {
    "title": "ë”ì“¸ëª¨í˜‘ë™ì¡°í•©",
    "info": "í”Œë¼ìŠ¤í‹±ì´ ì£¼ ì¬ë£Œì¸ ìƒí™œìš©í’ˆë“¤ì„ ì²œì—°ì¬ë£Œë¡œ ëŒ€ì²´í•œ ì œí’ˆë“¤ì„ íŒë§¤, ìì œì ìœ¼ë¡œ ì œì‘í•˜ê¸°ë„ í•´ìš”!",
    "lat": 35.88465,
    "lng": 128.611893,
    "rat": "",
    "address": "ëŒ€êµ¬ ë¶êµ¬ ëŒ€í˜„ë™ 17-59",
    "tel": "",
    "site": "http://the-sseulmo.com/55"
  },
  {
    "title": "Allë°”ë¥¸ìƒµ",
    "info": "ë¦¬í•„ ìŠ¤í…Œì´ì…˜ì€ í†µì„ ë“¤ê³ ì™€ ì„¸ì œ ì¡ê³¡ êµ¬ì…í•˜ì„¸ìš”ğŸŒ",
    "lat": 37.188879,
    "lng": 127.072036,
    "rat": "",
    "address": "ê²½ê¸° í™”ì„±ì‹œ ë°˜ì†¡ë™ 190-2",
    "tel": "",
    "site": "https://www.instagram.com/all.bareun.shop/"
  },
  {
    "title": "ì¬ì¬ìƒì ",
    "info": "ì œë¡œì›¨ì´ìŠ¤íŠ¸ ì‹¤ì²œì„ ìœ„í•œ íŒ¨ë¸Œë¦­ìš©í’ˆ ì œì‘&íŒë§¤, ìˆ˜ì—…ê³¼ í™˜ê²½ì„ ì£¼ì œë¡œ í•˜ëŠ” ë“œë¡œì‰ ìˆ˜ì—…, ëª¨ì„ì„ ìš´ì˜í•˜ê³  ìˆì–´ìš”!",
    "lat": 37.265839,
    "lng": 126.982468,
    "rat": "",
    "address": "ê²½ê¸° ìˆ˜ì›ì‹œ ê¶Œì„ êµ¬ ì„œë‘”ë¡œ 166 (ì„œë‘”ë™)",
    "tel": "",
    "site": "https://www.instagram.com/jaejaestore_zerowaste/"
  },
  {
    "title": "ë” ë°”ë””ìƒµ ê°•ë‚¨ëŒ€ë¡œì ",
    "info": "ì—¬ì„¯ê°€ì§€ ìƒ¤ì›Œì ¤ì„ ì•Œë£¨ë¯¸ëŠ„ í†µì— ë‹´ì•„ê°ˆ ìˆ˜ ìˆëŠ” ë¦¬í•„ ë°”ë¥¼ ìš´ì˜í•©ë‹ˆë‹¤!",
    "lat": 37.502408,
    "lng": 127.02512,
    "rat": 3.3,
    "address": "ì„œìš¸ ì„œì´ˆêµ¬ ê°•ë‚¨ëŒ€ë¡œ 449 1,2ì¸µ (ì„œì´ˆë™)",
    "tel": "02-3482-4526",
    "site": "https://www.thebodyshop.co.kr/"
  },
  {
    "title": "ë¥´ë¼ë³´ ê°€ë¡œìˆ˜ê¸¸ì ",
    "info": " ë¥´ ë¼ë³´ì—ì„œëŠ” ë‹¤ ì“´ í–¥ìˆ˜ë¥¼ ë¦¬í•„ êµ¬ë§¤ê°€ ê°€ëŠ¥í•©ë‹ˆë‹¤!",
    "lat": 37.521721,
    "lng": 127.021943,
    "rat": 4.6,
    "address": "ì„œìš¸ ê°•ë‚¨êµ¬ ì••êµ¬ì •ë¡œ10ê¸¸ 28 1ì¸µ (ì‹ ì‚¬ë™)",
    "tel": "02-541-7945",
    "site": "https://www.lelabofragrances.com/"
  },
  {
     "title":"ë™ì„ ë‚˜ëˆ”ì ë°©",
     "info":"ì œë¡œ ì›¨ì´ìŠ¤íŠ¸, í”Œë¼ìŠ¤í‹± í”„ë¦¬ë¥¼ ì‹¤ì²œí•˜ëŠ” ë™ì„ ë‚˜ëˆ”ì ë°©! í”Œë¼ìŠ¤í‹± ëšœê»‘ë„ ëª¨ì•„ìš”.",
     "lat":37.593938,
     "lng":127.020394,
     "rat":1.8,
     "address":"ì„œìš¸ ì„±ë¶êµ¬ ë™ì†Œë¬¸ë¡œ26ê¸¸ 27 (ë™ì„ ë™3ê°€)",
     "tel":"02-2241-5080",
     "site":"https://www.instagram.com/net__zero/"
  },
  {
     "title":"ì½”ë¿”ì†Œì±…ë°©",
     "info":"ì»¤í”¼ì™€ ì°¨ê°€ ìˆëŠ” ì„œì . ìš°ë¦¬ë™ë„¤ ë¬¸í™”ì‚´ë¡±ì„ ëª©í‘œë¡œ ìš´ì˜í•´ìš”.",
     "lat":37.651277,
     "lng":126.695194,
     "rat":5.0,
     "address":"ê²½ê¸° ê¹€í¬ì‹œ ê¹€í¬í•œê°•11ë¡œ438ë²ˆê¸¸ 123 ìƒê°€ë™ 109í˜¸",
     "tel":"",
     "site":"https://www.instagram.com/rhino_books_/"
  },
  {
     "title":"í’€ë¬´í•™êµ ìƒí˜‘",
     "info":"ì¹œí™˜ê²½ìœ ê¸°ë†ì‚°ë¬¼ì„ í†µí•´ ì¸ì¦ë°›ì€ ë†ì‚°ë¬¼ë§Œì„ íŒë§¤í•´ìš”.",
     "lat":36.557411,
     "lng":126.685161,
     "rat":5.0,
     "address":"ì¶©ë‚¨ í™ì„±êµ° í™ë™ë©´ ê´‘ê¸ˆë‚¨ë¡œ 658-8 (í™ë™ë©´)",
     "tel":"",
     "site":"https://www.facebook.com/gotgolpoolmoo"
  },
  {
     "title":"ë§ˆê·¸ì•¤ê·¸ë˜",
     "info":"ì–´ë¦°ì´ ë„ì„œì™€ ì˜ˆìˆ  ë¶„ì•¼ì˜ ì±…ì„ ì£¼ë¡œ ì†Œê°œí•˜ëŠ” ì„œì ",
     "lat":37.247351,
     "lng":127.026806,
     "rat":"",
     "address":"ê²½ê¸° ìˆ˜ì›ì‹œ ê¶Œì„ êµ¬ ì„¸ê¶Œë¡œ316ë²ˆê¸¸ 49 í˜„ëŒ€ì•„íŒŒíŠ¸ìƒê°€ 2ì¸µ",
     "tel":"",
     "site":"https://www.instagram.com/magandgra/"
  },
  {
     "title":"ì—ë¥´ë§ˆë‚˜ìŠ¤",
     "info":"ì›ì£¼ ìµœì´ˆì˜ ì œë¡œì›¨ì´ìŠ¤íŠ¸ìƒµ, ì£¼ë¡œ ìº”ë“¤ê³¼ ì¹œí™˜ê²½ì„¸ì œë¥¼ ì†Œë¶„í•´ìš”.",
     "lat":37.327975,
     "lng":127.942804,
     "rat":"",
     "address":"ê°•ì› ì›ì£¼ì‹œ ë‚¨ì›ë¡œ469ë²ˆê¸¸ 14-2 1ì¸µ (ëª…ë¥œë™)",
     "tel":"010-4650-5230",
     "site":"https://www.instagram.com/hermanas__2019/"
  },
  {
     "title":"ë‚´ì¼ìƒíšŒ",
     "info":"ë¡œì»¬ í‘¸ë“œ, ê±´ê°•í•œ ì‹ìƒí™œ ë¬¸í™” ë“± ì§€ì†ê°€ëŠ¥í•˜ê³  ìƒíƒœì ì¸ ì‚¶ì„ ìœ„í•œ í¸ì§‘ìˆ",
     "lat":37.760607,
     "lng":128.905052,
     "rat":5.0,
     "address":"ê°•ì› ê°•ë¦‰ì‹œ ìš©ì§€ê°ê¸¸8ë²ˆê¸¸ 3 (í¬ë‚¨ë™)",
     "tel":"",
     "site":"https://www.instagram.com/tomorrow.market/"
  },
  {
     "title":"ë…¸í”Œë¼ìŠ¤í‹± ì¹´í˜",
     "info":"ì¼íšŒìš©í’ˆì´ ì „í˜€ ì—†ëŠ” ê°ì„± ì¹´í˜",
     "lat":34.949732,
     "lng":127.48573,
     "rat":5.0,
     "address":"ì „ë‚¨ ìˆœì²œì‹œ ì¤‘ì•™3ê¸¸ 6-6 1ì¸µ (ì¥ì²œë™)",
     "tel":"061-745-0601",
     "site":"https://www.instagram.com/noplasticproject98.2/"
  },
  {
     "title":"ë¸Œë¦¿ì§€ì—£ì§€",
     "info":"í‚¨í¬í¬ ë¼ì´í”„ë¥¼ ì¶”êµ¬í•˜ëŠ” ë””ì €íŠ¸ ì¹´í˜, zero-waste ì§€í–¥, less-waste ì‹¤ì²œ",
     "lat":37.502219,
     "lng":126.954304,
     "rat":5.0,
     "address":"ì„œìš¸ ë™ì‘êµ¬ ìƒë„ë¡œ53ê¸¸ 70 ìƒë„ì—ìŠ¤ì—ì´ì¹˜ë¹Œ ìƒê°€ 311í˜¸",
     "tel":"",
     "site":"https://www.instagram.com/bridgedge_dessert/"
  },
  {
     "title":"ì‚¬ì§ë™ ê·¸ ê°€ê²Œ",
     "info":"í‹°ë² íŠ¸ ë‚œë¯¼ì‚¬íšŒì˜ ê²½ì œì , ë¬¸í™”ì  ìë¦½ì„ ì§€ì›í•˜ëŠ” NGO ë‹¨ì²´ì—ì„œ ìš´ì˜í•˜ëŠ” ê°€ê²Œ",
     "lat":37.577038,
     "lng":126.967803,
     "rat":4.3,
     "address":"ì„œìš¸ ì¢…ë¡œêµ¬ ì‚¬ì§ë¡œ9ê¸¸ 18 (ì‚¬ì§ë™)",
     "tel":"070-4045-6331",
     "site":"https://www.instagram.com/rogpashop/"
  },
  {
     "title":"ë‘ë”ì§€ì† ê°€ê²Œ",
     "info":"ì•„ë‹´í•œ ì¹´í˜, ì¢…ì¢… ëœ¨ê°œì§ˆ ë“± í´ë˜ìŠ¤ë¥¼ ì—´ì–´ìš”.",
     "lat":37.533238,
     "lng":126.905138,
     "rat":4.7,
     "address":"ì„œìš¸ ì˜ë“±í¬êµ¬ ë‹¹ì‚°ë¡œ52ê¸¸ 31-1 1ì¸µ (ë‹¹ì‚°ë™6ê°€)",
     "tel":"",
     "site":"https://www.instagram.com/molehand/"
  },
  {
     "title":"ì¹´í˜ê¸°ì›ƒê¸°ì›ƒ",
     "info":"ë¯¸ì„¸í”Œë¼ìŠ¤í‹± ì—†ì• ê¸°ì— ì•ì¥ì„œëŠ” ê±´ê°•í•œ ì°¨ì™€ ë””ì €íŠ¸ê°€ ê³µì¡´í•˜ëŠ” ì¹œí™˜ê²½ ì¹´í˜",
     "lat":37.554683,
     "lng":126.933605,
     "rat":4.8,
     "address":"ì„œìš¸ ë§ˆí¬êµ¬ ì‹ ì´Œë¡œ12ë‹¤ê¸¸ 20 ìŠ¤í…Œì´í•˜ì´ì˜¤í”¼ìŠ¤í…” 1ì¸µ",
     "tel":"",
     "site":"https://www.instagram.com/giut_giut/"
  },
  {
     "title":"í¬í¬ë¸Œë ˆë“œ",
     "info":"ì‚¬ëŒ, ë™ë¬¼, ì§€êµ¬, ë‚´ì¼ 4ê°€ì§€ë¥¼ ìœ„í•œ ë”°ëœ»í•œ ë¹„ê±´ë² ì´ì»¤ë¦¬",
     "lat":37.56996,
     "lng":126.931248,
     "rat":4.9,
     "address":"ì„œìš¸ ì„œëŒ€ë¬¸êµ¬ ì¦ê°€ë¡œ 18 (ì—°í¬ë™)",
     "tel":"02-332-2044",
     "site":"https://www.instagram.com/forfourbread/"
  },
  {
     "title":"ì•ìœ¼ë¡œì˜ ë¹µì§‘",
     "info":"ë§›ìˆëŠ” ë¹„ê±´! ì—†ì„ìˆ˜ë¡ ê±´ê°•í•œ, ë„£ì„ìˆ˜ë¡ ë§›ìˆëŠ” ì•ìœ¼ë¡œì˜ ë¹µì§‘",
     "lat":37.574657,
     "lng":126.989345,
     "rat":4.5,
     "address":"ì„œìš¸ ì¢…ë¡œêµ¬ ì‚¼ì¼ëŒ€ë¡œ32ê°€ê¸¸ 29-1 (ìµì„ ë™)",
     "tel":"010-6662-2943",
     "site":"https://www.instagram.com/apbbang/"
  },
  {
     "title":"í˜ì´í¼ë„›ì¸ ",
     "info":"í”Œë¼ìŠ¤í‹±í”„ë¦¬! ë¬´í¬ì¥ê°€ê²Œ, ë‹¤íšŒìš©ê¸°ë¥¼ í™˜ì˜í•˜ëŠ” ê²¬ê³¼ìƒì ",
     "lat":37.581205,
     "lng":126.908223,
     "rat":4.8,
     "address":"ì„œìš¸ ì„œëŒ€ë¬¸êµ¬ ê±°ë¶ê³¨ë¡œ24ê¸¸ 37-8 1ì¸µ (ë¶ê°€ì¢Œë™)",
     "tel":"02-6408-7799",
     "site":"https://www.instagram.com/paper_nuts/"
  },
  {
     "title":"ë³¸ì¡°ë¥´ë…¸ë² ì´ì»¤ë¦¬",
     "info":"ì‚¬ì›Œë„ìš°, ë°”ê²ŒíŠ¸, ê¹œë¹ ë‰´, í˜¸ë°€ë¹µ, ì¹˜ì•„ë°”íƒ€ë¥¼ ì£¼ë©”ë‰´ë¡œ íŒŒëŠ” ê±´ê°•ë¹µ ë² ì´ì»¤ë¦¬",
     "lat":33.49118,
     "lng":126.476567,
     "rat":4.7,
     "address":"ì œì£¼íŠ¹ë³„ìì¹˜ë„ ì œì£¼ì‹œ ë‹¤ë‘ê³¶4ê¸¸ 68 (ë…¸í˜•ë™",
     "tel":"010-3646-3473",
     "site":""
  },
  {
     "title":"ë‹¬ëƒ¥",
     "info":"í™˜ìƒì˜ ë””ì €íŠ¸, ë¸ŒëŸ°ì¹˜ë¥¼ íŒŒëŠ” ë¹„ê±´ ì¹´í˜",
     "lat":37.608414,
     "lng":126.933751,
     "rat":4.4,
     "address":"ì„œìš¸ ì€í‰êµ¬ í†µì¼ë¡œ 684 ì„œìš¸í˜ì‹ íŒŒí¬ ìƒìƒì²­ 1ì¸µ",
     "tel":"",
     "site":"https://www.instagram.com/dalyang_vegancafe/"
  },
  {
     "title":"í¬ë ˆìŠ¤í…Œì´ë¸”",
     "info":"ê±´ê°•í•œ í…Œì´ë¸”ì´ ê±´ê°•í•œ ìš°ë¦¬ ëª¸ê³¼ ì§€êµ¬ë¥¼ ë§Œë“ ë‹¤! ë¹„ê±´ ë² ì´ì»¤ë¦¬ ì¹´í˜",
     "lat":34.953868,
     "lng":127.694707,
     "rat":5.0,
     "address":"ì „ë‚¨ ê´‘ì–‘ì‹œ ìì‘ê¸¸ 39 1ì¸µ (ë§ˆë™)",
     "tel":"0507-1428-0420",
     "site":"https://www.instagram.com/forestable_table/"
  },
  {
     "title":"ë¹µê³¼ì¥ë¯¸",
     "info":"ë¬´í¬ì¥, ì œë¡œì›¨ì´ìŠ¤íŠ¸ë¥¼ ì‹¤ì²œí•˜ëŠ” ë¹„ê±´ ì¹´í˜",
     "lat":35.135078,
     "lng":126.794215,
     "rat":4.8,
     "address":"ê´‘ì£¼ ê´‘ì‚°êµ¬ ìƒë„ì‚°ê¸¸ 54 (ë„ì‚°ë™)",
     "tel":"",
     "site":"https://www.instagram.com/bakery_breadnrose/"
  },
  {
     "title":"ê³æ„›(ê³ì• )",
     "info":"í¬ê·¼í•˜ê³  ì¡°ìš©í•œ ë¶„ìœ„ê¸°ì˜ ì¼íšŒìš©í’ˆ ì—†ëŠ” ì¹´í˜",
     "lat":37.512454,
     "lng":126.924262,
     "rat":4.4,
     "address":"ì„œìš¸ ì˜ë“±í¬êµ¬ ì˜ë“±í¬ë¡œ 420-6 (ì‹ ê¸¸ë™)",
     "tel":"0507-1342-3877",
     "site":"https://www.instagram.com/cafe.gyute/"
  },
  {
     "title":"ì–¼ìŠ¤ì–´ìŠ¤",
     "info":"ëª¨ë“  ë©”ë‰´ ë‹¤íšŒìš©ê¸°ë¥¼ ê°€ì§€ê³  ê°€ì•¼ í¬ì¥ ê°€ëŠ¥í•œ ì œë¡œì›¨ì´ìŠ¤íŠ¸ ë””ì €íŠ¸ ì¹´í˜",
     "lat":37.564112,
     "lng":126.923239,
     "rat":3.9,
     "address":"ì„œìš¸ ë§ˆí¬êµ¬ ì„±ë¯¸ì‚°ë¡œ 150 (ì—°ë‚¨ë™) ",
     "tel":"",
     "site":"https://www.instagram.com/earth__us/"
  },
  {
     "title":"ì„œìŠ¤í…Œì´ë„ˆë¸”í•´ë¹—",
     "info":"ì§€ì†ê°€ëŠ¥í•œ ì‚¶ì„ ìœ„í•œ ìŠµê´€ì„ ì¶”êµ¬í•˜ëŠ” ìƒí™œìš©í’ˆìƒµ",
     "lat":37.554725,
     "lng":126.976819,
     "rat":4.7,
     "address":"ì„œìš¸ ìš©ì‚°êµ¬ ì†Œì›”ë¡œ2ê¸¸ 5 1ì¸µ (í›„ì•”ë™)",
     "tel":"070-4235-8396",
     "site":"https://www.instagram.com/sustainable_habits_/"
  },
  {
     "title":"ìì–‘ë¶„",
     "info":"ì¼íšŒìš©í’ˆ ì‚¬ìš©ì„ ì§€ì–‘í•˜ëŠ” ì œë¡œí”Œë¼ìŠ¤í‹± ì¹´í˜ ìì–‘ë¶„",
     "lat":36.336091,
     "lng":127.446868,
     "rat":5.0,
     "address":"ëŒ€ì „ ë™êµ¬ ë™ëŒ€ì „ë¡œ 159 1ì¸µ (ìì–‘ë™)",
     "tel":"",
     "site":"https://www.instagram.com/jayang_boon/"
  },
  {
     "title":"ë³´í‹€ë¼ìš´ì§€",
     "info":"ì¼íšŒìš©í’ˆì„ ì‚¬ìš©í•˜ì§€ ì•ŠëŠ” ê³µê°„, ê³µìœ ì»µì„ ëŒ€ì—¬í•˜ëŠ” ë³´í‹€í´ëŸ½ë„ ìš´ì˜í•´ìš”.",
     "lat":37.575146,
     "lng":126.928468,
     "rat":"",
     "address":"ì„œìš¸ ì„œëŒ€ë¬¸êµ¬ í™ì—°ê¸¸ 26 1ì¸µ (ì—°í¬ë™)",
     "tel":"",
     "site":"https://www.instagram.com/bottlelounge_/"
  },
  {
     "title":"ë” ì»¤ë¨¼",
     "info":"ì†Œë¶„ êµ¬ë§¤ë„ ê°€ëŠ¥í•œ ì „ ë©”ë‰´ ë¹„ê±´ ìƒµê³¼ ì¹´í˜",
     "lat":35.867397,
     "lng":128.606393,
     "rat":4.7,
     "address":"ëŒ€êµ¬ ì¤‘êµ¬ êµ­ì±„ë³´ìƒë¡œ 741 (ë™ì¸ë™4ê°€)",
     "tel":"",
     "site":"https://www.instagram.com/common.for.green/"
  },
  {
     "title":"ë¬´í•´ê³µê°„",
     "info":"ì‘ì€ ë™ë„¤ì—ì„œ ì‹œì‘í•˜ëŠ” ì œë¡œì›¨ì´ìŠ¤íŠ¸ ìš©í’ˆê°€ê²Œ",
     "lat":37.435703,
     "lng":127.141965,
     "rat":"",
     "address":"ê²½ê¸° ì„±ë‚¨ì‹œ ì¤‘ì›êµ¬ ì›í„°ë¡œ105ë²ˆê¸¸ 5-1 1ì¸µ (ì„±ë‚¨ë™)",
     "tel":"",
     "site":"https://www.instagram.com/harmless_space/"
  },
  {
     "title":"ì‹¬í”Œì†Œìš”",
     "info":"ë‹¨ìˆœí•¨ê³¼ í•„ìš”í•¨ë§Œì„ ë‹´ì€ ì²œì—°ë¹„ëˆ„ì™€ ì¹œí™˜ê²½ ë§¤ì¥",
     "lat":37.278645,
     "lng":127.112139,
     "rat":"",
     "address":"ê²½ê¸° ìš©ì¸ì‹œ ê¸°í¥êµ¬ êµ¬ê°ˆë¡œ28ë²ˆê¸¸ 21-13 í•œì–‘ì•„íŒŒíŠ¸ ìƒê°€ 3ì¸µ",
     "tel":"",
     "site":"https://www.instagram.com/simple_soyo/"
  },
  {
     "title":"ì œë¡œì›¨ì´ìŠ¤íŠ¸ ì‘¥",
     "info":"ì“°ë ˆê¸° ì¤„ì´ê¸°ë¥¼ ì§€í–¥í•˜ëŠ” ì œë¡œì›¨ì´ìŠ¤íŠ¸ ë¼ì´í”„ì•¤ì»¬ì³ ìƒµ",
     "lat":35.267561,
     "lng":129.234915,
     "rat":"",
     "address":"ë¶€ì‚° ê¸°ì¥êµ° ì¼ê´‘ë©´ ì´ì²œë¦¬ 777-2",
     "tel":"",
     "site":"https://www.instagram.com/ssuk_zerowaste/"
  },
  {
     "title":"ë†ë¶€ì• ê³³ê°„",
     "info":"ì‚°ì²­ ì§€ì—­ ë° ê·¼ê±°ë¦¬ì—ì„œ ìƒì‚°í•œ ì¹œí™˜ê²½ ë†ì‚°ë¬¼ì„ ë§Œë‚˜ë³¼ ìˆ˜ ìˆëŠ” ë¡œì»¬ë§ˆì¼“",
     "lat":35.302126,
     "lng":127.974876,
     "rat":5.0,
     "address":"ê²½ë‚¨ ì‚°ì²­êµ° ì‹ ì•ˆë©´ ì›ì§€ë¡œ 22-14 1ì¸µ (ì‹ ì•ˆë©´)",
     "tel":"070-8866-7690",
     "site":"https://www.facebook.com/%EB%86%8D%EB%B6%80%EC%95%A0%EA%B3%B3%EA%B0%84-115531737016716"
  },
  {
     "title":"ë‚¯ì„¤ì—¬ê´€ 204í˜¸",
     "info":"ì¼ìƒ ì—¬í–‰ìë“¤ì´ ì±…ê³¼ ì‹œì§„ì„ í†µí•´ ì‰¼ì„ ì–»ì„ ìˆ˜ ìˆëŠ” ì œë¡œì›¨ì´ìŠ¤íŠ¸ìƒµê³¼ ì±…ë°©",
     "lat":37.292066,
     "lng":127.005112,
     "rat":5.0,
     "address":"ê²½ê¸° ìˆ˜ì›ì‹œ ì¥ì•ˆêµ¬ ì˜í™”ë¡œ71ë²ˆê¸¸ 33 2ì¸µ (ì •ìë™)",
     "tel":"070-8064-0120",
     "site":"https://www.instagram.com/ridinn.book/"
  },
  {
     "title":"ë‹¤ì‹œì±„ì›€",
     "info":"í™˜ê²½ì„ ìœ„í•œ ì‘ì€ ì‹¤ì²œì„ ìœ„í•´ ì–´ë””ë“  ì°¾ì•„ê°€ëŠ” ì´ë™í˜• ë¦¬í•„ìƒµ",
     "lat":37.328615,
     "lng":127.114251,
     "rat":"",
     "address":"ê²½ê¸° ìš©ì¸ì‹œ ìˆ˜ì§€êµ¬ ì£½ì „ë™ 484-9",
     "tel":"",
     "site":"https://www.instagram.com/refill_for_earth/"
  },
  {
     "title":"ìš©ê¸°ë‚´ê°€ê²Œ",
     "info":"ì¹œí™˜ê²½ ì¬ë£Œë¡œë§Œ ë§Œë“¤ì–´ì§„ ìƒí™œìš©í’ˆì„ êµ¬ì…í•  ìˆ˜ ìˆëŠ” ì œë¡œì›¨ì´ìŠ¤íŠ¸ìƒµ",
     "lat":37.335535,
     "lng":127.0927,
     "rat":"",
     "address":"ê²½ê¸° ìš©ì¸ì‹œ ìˆ˜ì§€êµ¬ ë™ì²œë™ 874-6",
     "tel":"",
     "site":""
  },
  {
     "title":"ë¹„ê·¸ë¦°(B:green)",
     "info":"ì§€êµ¬ì™€ ìš°ë¦¬ ëª¨ë‘ë¥¼ ìœ„í•œ ì‹¤ì²œì„ ì¶”êµ¬í•˜ëŠ” ìƒí™œìš©í’ˆìƒµ",
     "lat":37.512638,
     "lng":126.927198,
     "rat":"",
     "address":"ì„œìš¸ ë™ì‘êµ¬ ë…¸ëŸ‰ì§„ë¡œ 10 1ì¸µ (ëŒ€ë°©ë™)",
     "tel":"",
     "site":"https://www.instagram.com/b.green_official/"
  },
  {
     "title":"ë””ì–´ì—ì½”",
     "info":"ì†Œë¹„ìë“¤ì´ ê°ìì˜ ì¬ì‚¬ìš© ìš©ê¸°ì— ì¬ë£Œë¥¼ ëœì–´ êµ¬ë§¤í•˜ëŠ” ì œë¡œì›¨ì´ìŠ¤íŠ¸ìƒµ",
     "lat":37.541228,
     "lng":127.093785,
     "rat":5.0,
     "address":"ì„œìš¸ ê´‘ì§„êµ¬ ì•„ì°¨ì‚°ë¡œ65ê¸¸ 22 1ì¸µ (êµ¬ì˜ë™)",
     "tel":"",
     "site":"https://www.instagram.com/dear.eco/"
  },
  {
     "title":"ì˜¤ëŠ˜ê°€ê²Œ",
     "info":"ì¹œí™©ê²½ ì„¸ì¬, ë¹„ëˆ„ ë“±ì„ íŒë§¤í•˜ëŠ” ì œë¡œì›¨ì´ìŠ¤íŠ¸ê°€ê²Œ",
     "lat":35.237552,
     "lng":128.85905,
     "rat":5.0,
     "address":"ê²½ë‚¨ ê¹€í•´ì‹œ ìš°ì•”ë¡œ85ë²ˆê¸¸ 36-1 1ì¸µ (ë‚´ë™)",
     "tel":"",
     "site":""
  },
  {
     "title":"ê°€ì¹˜ê°€ê²Œ ë¦¬í•„ìŠ¤í…Œì´ì…˜",
     "info":"ì²œì—° ìƒí™œìš©í’ˆì„ íŒë§¤í•˜ê³  ì¹´í˜ë¥¼ ìš´ì˜í•˜ëŠ” ì œë¡œì›¨ì´ìŠ¤íŠ¸ê°€ê²Œ",
     "lat":37.256589,
     "lng":127.019561,
     "rat":5.0,
     "address":"ê²½ê¸° ìˆ˜ì›ì‹œ ê¶Œì„ êµ¬ ì„¸ê¶Œë¡œ 140 ì§€í•˜1ì¸µ (ì„¸ë¥˜ë™)",
     "tel":"0507-1340-8781",
     "site":"https://www.instagram.com/gaci.gage/"
  },
  {
     "title":"ì§€êµ¬ë§‘ìŒ",
     "info":"ì œë¡œì›¨ì´ìŠ¤íŠ¸ìƒµì„ ìš´ì˜í•˜ëŠ” ë™ì‹œì— ì—¬ëŸ¬ ì²´í—˜ë„ í•  ìˆ˜ ìˆëŠ” ê³µê°„",
     "lat":35.540481,
     "lng":129.338574,
     "rat":"",
     "address":"ìš¸ì‚° ë‚¨êµ¬ ì‚¼ì‚°ì¤‘ë¡œ74ë²ˆê¸¸ 30 (ì‚¼ì‚°ë™)",
     "tel":"",
     "site":"https://www.instagram.com/jigumalgeu._.m/"
  },
  {
     "title":"ë ˆë””íˆ¬ì›°ë‹ˆìŠ¤",
     "info":"ë‚¨ì‚° ì•„ë˜ì— ìë¦¬í•œ ë ˆë””íˆ¬ì›°ë‹ˆìŠ¤ëŠ” ì¢‹ì€ ì‚¶ì— ëŒ€í•œ ë°©ì‹ì„ ì œì•ˆí•˜ëŠ” ì›°ë‹ˆìŠ¤ ìˆ",
     "lat":37.556982,
     "lng":126.977669,
     "rat":"",
     "address":"ì„œìš¸ ì¤‘êµ¬ í‡´ê³„ë¡œ2ê¸¸ 9-8 4ì¸µ (ë‚¨ì°½ë™)",
     "tel":"",
     "site":"https://readytowellness.com/about"
  },
  {
     "title":"ì„ ì„ í•œì£¼ë°©",
     "info":"ê³ ë ¹ ìˆ˜ê³µì˜ˆì¸ë“¤ì˜ ê¸°ìˆ ê³¼ ë…¸í•˜ìš°ë¥¼ ì‚¬íšŒì  í•„ìš”ì™€ ì—°ê²°í•˜ëŠ” ìì—°ì¹œí™” ì£¼ë°©ìš©í’ˆì ",
     "lat":35.032698,
     "lng":126.71471,
     "rat":"",
     "address":"ì „ë‚¨ ë‚˜ì£¼ì‹œ ê¸ˆë‚¨ê¸¸ 50 (ì„œë‚´ë™)",
     "tel":"",
     "site":"https://www.instagram.com/sunsun_jubang/"
  },
  {
     "title":"ëŠ˜ë¯¸ê³¡",
     "info":"ì „ì£¼ ìµœì´ˆì˜ ì œë¡œ ì›¨ì´ìŠ¤íŠ¸ìƒµ, ì¡ê³¡ì„ ë©”ì¸ìœ¼ë¡œ í•œ ì†Œë¶„ ìƒµ",
     "lat":35.815782,
     "lng":127.126401,
     "rat":5.0,
     "address":"ì „ë¶ ì „ì£¼ì‹œ ì™„ì‚°êµ¬ ì„ ë„ˆë¨¸ë¡œ 16 (ì¤‘í™”ì‚°ë™2ê°€)",
     "tel":"070-4240-0225",
     "site":"http://neulmigok.com/"
  },
  {
     "title":"ì€ì˜ìƒì ",
     "info":"ëŒ€ì „ ìœ ì¼ ì œë¡œì›¨ì´ìŠ¤íŠ¸ ìƒµ",
     "lat":36.360745,
     "lng":127.351235,
     "rat":5.0,
     "address":"ëŒ€ì „ ìœ ì„±êµ¬ ëŒ€í•™ë¡œ159ë²ˆê¸¸ 2 1ì¸µ (ê¶ë™)",
     "tel":"",
     "site":"https://www.instagram.com/eunyoung_store/"
  },
  {
     "title":"ì§€êµ¬ì—í‹°ì¼“",
     "info":"ë¦¬í•„ ìŠ¤í…Œì´ì…˜, ì œë¡œì›¨ì´ìŠ¤íŠ¸ ìƒµ",
     "lat":37.184058,
     "lng":127.043488,
     "rat":5.0,
     "address":"ê²½ê¸° ì˜¤ì‚°ì‹œ ì„¸ë§ˆì—­ë¡œ19ë²ˆê¸¸ 52 101í˜¸ (ì„¸êµë™)",
     "tel":"",
     "site":"https://www.instagram.com/earth_etiquette/"
  },
  {
     "title":"ì†Œì¤‘í•œëª¨ë“ ê²ƒ",
     "info":"ì œë¡œì›¨ì´ìŠ¤íŠ¸ ìƒµ, ì†Œí’‰ìƒµ, ë””í“¨ì € ë¹„ëˆ„ê³µë°©",
     "lat":37.448381,
     "lng":126.675865,
     "rat":5.0,
     "address":"ì¸ì²œ ë‚¨ë™êµ¬ ì¸í•˜ë¡œ 617 1ì¸µ 108í˜¸ (êµ¬ì›”ë™)",
     "tel":"070-4266-0247",
     "site":"https://www.instagram.com/sojunghan_everything/"
  },
  {
     "title":"ì§€êµ¬ìˆ˜í˜¸ëŒ€ ì°©í•œìƒì ",
     "info":"ì‚¬íšŒì ê²½ì œì¡°ì§ì˜ ì œí’ˆê³¼ ì¹œí™˜ê²½ ì œí’ˆì„ íŒë§¤í•˜ëŠ” ìƒµ",
     "lat":37.53097,
     "lng":126.655778,
     "rat":5.0,
     "address":"ì¸ì²œ ì„œêµ¬ ì²­ë¼ì—ë©”ë„ë“œë¡œ 99 ì§€ì ¤ì—  ì§€í•˜1ì¸µ Bë™ 87í˜¸",
     "tel":"",
     "site":"https://m.place.naver.com/place/1378440122/review/ugc"
  },
  {
     "title":"ë•ë¶„ì• ",
     "info":"ì„¸ì œ ê²¬ê³¼ë¥˜ ì¡ê³¡ ë¦¬í•„, ìƒí™œìš©í’ˆ íŒë§¤í•˜ëŠ” ì œë¡œì›¨ì´ìŠ¤íŠ¸ìƒµ ",
     "lat":37.496907,
     "lng":127.023483,
     "rat":"",
     "address":"ì„œìš¸ ì„œì´ˆêµ¬ ì„œì´ˆëŒ€ë¡œ 389 ì§„í¥ìƒê°€ 2ì¸µ 209í˜¸",
     "tel":"02-6959-4479",
     "site":"https://www.thanksto.co.kr/"
  },
  {
     "title":"í—ˆê·¸ì–´ì›¨ì¼",
     "info":"ì¼íšŒìš© ì“°ë ˆê¸°ë¥¼ ì¤„ì´ê¸° ìœ„í•œ ì¹œìì—°, ì¹œí™˜ê²½ ìƒí’ˆì„ íŒë§¤í•˜ëŠ” ì œë¡œì›¨ì´ìŠ¤íŠ¸ìƒµ",
     "lat":37.552617,
     "lng":126.848485,
     "rat":5.0,
     "address":"ì„œìš¸ ê°•ì„œêµ¬ í™”ê³¡ë¡œ55ê¸¸ 23 (í™”ê³¡ë™)",
     "tel":"02-2038-7209",
     "site":"https://www.instagram.com/hug_a_whale/"
  },
  {
     "title":"ì†ë¦¬í•„ìŠ¤í…Œì´ì…˜",
     "info":"ìì—°ì„ ë‹®ì€ ì¹œí™˜ê²½ ì œí’ˆì„ íŒë§¤í•˜ëŠ” ì œë¡œì›¨ì´ìŠ¤íŠ¸ í¸ì§‘ìƒµ",
     "lat":37.466923,
     "lng":127.149517,
     "rat":5.0,
     "address":"ê²½ê¸° ì„±ë‚¨ì‹œ ìˆ˜ì •êµ¬ ìœ„ë¡€ê´‘ì¥ë¡œ 21 1ì¸µ 105í˜¸ (ì°½ê³¡ë™)",
     "tel":"010-4936-5049",
     "site":"soaprefillstation.co.kr"
  },
  {
     "title":"ë™ë„¤ë§ˆë‹¹ ë°°ì›€",
     "info":"ë³´ì´ì°¨ í‹°ë£¸ê³¼ ì œë¡œì›¨ì´ìŠ¤íŠ¸ìƒµì„ í•œ ê³µê°„ì—",
     "lat":36.632197,
     "lng":127.422783,
     "rat":"",
     "address":"ì¶©ë¶ ì²­ì£¼ì‹œ í¥ë•êµ¬ ë¹„í•˜ë¡œ57ë²ˆê¸¸ 38-8 (ë¹„í•˜ë™)",
     "tel":"",
     "site":" https://www.facebook.com/madangzero/"
  },
  {
     "title":"íƒ€ì˜ˆë¥´ì…€ë°”",
     "info":"ì¹œí™˜ê²½ ê³µë°©, ì œë¡œì›¨ì´ìŠ¤íŠ¸ ìƒµ",
     "lat":35.813352,
     "lng":128.523653,
     "rat":"",
     "address":"ëŒ€êµ¬ ë‹¬ì„œêµ¬ ì›”ë°°ë¡œ 80 ì§„ì²œëŒ€ì„±ìŠ¤ì¹´ì´ë ‰ìŠ¤ 1ì¸µ",
     "tel":"",
     "site":"https://www.instagram.com/taller_selva/"
  },
  {
     "title":"ì†¡ì •ë§ˆì„ì¹´í˜ì´ê³µ",
     "info":"ë¬´í¬ì¥ ì¹´í˜",
     "lat":35.136447,
     "lng":126.79819,
     "rat":5.0,
     "address":"ê´‘ì£¼ ê´‘ì‚°êµ¬ ì†¡ë„ë¡œ 257-1 (ì†¡ì •ë™)",
     "tel":"",
     "site":"https://www.facebook.com/travelmaker20/"
  },
  {
     "title":"íŒŒíŒŒìŠ¤ì»·",
     "info":" ì•„ë¹ ì˜ ë§ˆìŒìœ¼ë¡œ ì—¬ëŠ” ì˜¤ëŠ˜ì˜ ì •ìœ¡ì ",
     "lat":37.856289,
     "lng":127.751338,
     "rat":5.0,
     "address":"ê°•ì› ì¶˜ì²œì‹œ ë™ë‚´ë©´ ì¶˜ì²œìˆœí™˜ë¡œ 61-15 1ì¸µ (ë™ë‚´ë©´)",
     "tel":"033-262-6150",
     "site":"https://papascut.modoo.at/"
  },
  {
     "title":"í•¸ë“œë©”ì´ë“œë¼ì´í”„",
     "info":"ì§€ì†ê°€ëŠ¥í•œ ì¹œí™˜ê²½ ë¼ì´í”„ìŠ¤íƒ€ì¼ìƒµ & ê³µë°©",
     "lat":33.224106,
     "lng":126.261782,
     "rat":5.0,
     "address":"ì œì£¼íŠ¹ë³„ìì¹˜ë„ ì„œê·€í¬ì‹œ ëŒ€ì •ì ìƒëª¨ë¡œ 256 (ëŒ€ì •ì)",
     "tel":"",
     "site":"https://www.instagram.com/handmadelife79/?hl=ko"
  },
  {
     "title":"ì²œì—°ì œì‘ì†Œ",
     "info":"ë¶€ì‚° ìµœì´ˆ ì œë¡œì›¨ì´ìŠ¤íŠ¸ìƒµ",
     "lat":35.210844,
     "lng":129.010567,
     "rat":5.0,
     "address":"ë¶€ì‚°ê´‘ì—­ì‹œ ë¶êµ¬ ë•ì²œ2ë™ ë•ì²œ1ê¸¸ 93 2ì¸µ (ë•ì²œë™)",
     "tel":"051-338-9619",
     "site":"http://natural-factory2015.com/"
  },
  {
     "title":"í•œì‚´ë¦¼ ì œì£¼ë‹´ì„ë§¤ì¥",
     "info":"ë¡œì»¬í‘¸ë“œë§¤ì¥ì„ í’ˆì€ ë³µí•©ê³µê°„",
     "lat":33.489321,
     "lng":126.470803,
     "rat":3.0,
     "address":"ì œì£¼íŠ¹ë³„ìì¹˜ë„ ì œì£¼ì‹œ ì›”ê´‘ë¡œ 12 2ì¸µ (ë…¸í˜•ë™)",
     "tel":"064-745-5988",
     "site":"http://jeju.hansalim.or.kr/"
  },
  {
     "title":"ìœ ë¯¼ì–¼ë",
     "info":"ì—°ë‚¨ë™ ì£¼íƒê°€ ì‘ì€ ê³¨ëª©ê¸¸ì— ìˆëŠ”. ì œë¡œì›¨ì´ìŠ¤íŠ¸ í¸ì§‘ìˆ",
     "lat":37.564388,
     "lng":126.917488,
     "rat":5.0,
     "address":"ì„œìš¸ ë§ˆí¬êµ¬ ì„±ë¯¸ì‚°ë¡œ17ê¸¸ 68 3í˜¸ (ì—°ë‚¨ë™)",
     "tel":"",
     "site":"https://www.instagram.com/youmean.alot/"
  },
  {
     "title":"ë§ˆë¦¬ì•¤í•˜ìš°ìŠ¤",
     "info":"ë¹„ëˆ„ê³µë°©, ë¦¬í•„ìŠ¤í…Œì´ì…˜, ì¹œí™˜ê²½ ì œí’ˆì„ íŒë§¤í•˜ëŠ” ì œë¡œì›¨ì´ìŠ¤íŠ¸ìƒµ",
     "lat":35.184638,
     "lng":128.560233,
     "rat":5.0,
     "address":"ê²½ë‚¨ ì°½ì›ì‹œ ë§ˆì‚°í•©í¬êµ¬ 3.15ëŒ€ë¡œ 53-1 (ì›”ë‚¨ë™3ê°€)",
     "tel":"",
     "site":"https://www.instagram.com/mari_n_house/"
  },
  {
     "title":"ë™ê·¸ë¼ë¯¸ë¦¬í•„ëŸ¬ë¦¬",
     "info":"ì œë¡œì›¨ì´ìŠ¤íŠ¸ ì„¸ì œë¦¬í•„ìƒµ",
     "lat":37.390228,
     "lng":127.084345,
     "rat":5.0,
     "address":"ê²½ê¸° ì„±ë‚¨ì‹œ ë¶„ë‹¹êµ¬ íŒêµë¡œ33ë²ˆê¸¸ 9 1ì¸µ, 101-1í˜¸",
     "tel":"010-6838-4667",
     "site":"https://donggramirefillery.com/"
  },
  {
     "title":"ë§ˆì´ì•„ì¼ëœë“œ",
     "info":"ì œë¡œì›¨ì´ìŠ¤íŠ¸ í”Œë¼ìŠ¤í‹±í”„ë¦¬ ì¹œí™˜ê²½ ë¼ì´í”„ ìŠ¤íƒ€ì¼ ë¸Œëœë“œ",
     "lat":33.258451,
     "lng":126.528345,
     "rat":5.0,
     "address":"ì œì£¼íŠ¹ë³„ìì¹˜ë„ ì„œê·€í¬ì‹œ í˜¸ê·¼ë¡œ112ë²ˆê¸¸ 24 (í˜¸ê·¼ë™)",
     "tel":"070-8809-0707",
     "site":"https://myisland.co.kr/layout/basic/about.html"
  },
  {
     "title":"ì§€êµ¬ë³„ê°€ê²Œ",
     "info":"ì œë¡œì›¨ì´ìŠ¤íŠ¸ ë¦¬ë¹™ë©! ì œë¡œì›¨ì´ìŠ¤íŠ¸ ì œí’ˆì„ ê°œë°œí•˜ê³  íŒë§¤í•˜ëŠ” ìƒµ",
     "lat":33.253804,
     "lng":126.522564,
     "rat":5.0,
     "address":"ì œì£¼íŠ¹ë³„ìì¹˜ë„ ì œì£¼ì‹œ ì›”ë‘ë¶2ê¸¸ 16 1ì¸µ 101í˜¸ (ì„œê·€í¬ì‹œ ì„œí˜¸ë¡œ 7-22)",
     "tel":"010-8209-0024",
     "site":"https://jigubyulstore.com/"
  },
  {
     "title":"ë¼ë§ˆí™ˆ",
     "info":"í™˜ê²½ì„ ìƒê°í•˜ëŠ” ì†Œí’ˆìƒµ",
     "lat":37.581591,
     "lng":126.973415,
     "rat":"",
     "address":"ì„œìš¸ ì¢…ë¡œêµ¬ ìí•˜ë¬¸ë¡œ 48 1ì¸µ (ì°½ì„±ë™)",
     "tel":"",
     "site":"https://www.instagram.com/ramahome/?hl=ko"
  },
  {
     "title":"ìš”ì„ ë‹¹",
     "info":" ì“°ë ˆê¸°ë¥¼ ì¤„ì´ê¸° ìœ„í•œ ëŒ€ì•ˆìš©í’ˆì„ íŒë§¤í•˜ëŠ” ì‘ì€ ìƒì ",
     "lat":37.882357,
     "lng":127.726484,
     "rat":"",
     "address":"ê°•ì› ì¶˜ì²œì‹œ ì„œë¶€ëŒ€ì„±ë¡œ44ë²ˆê¸¸ 10-21 1ì¸µ (ìš”ì„ ë™)",
     "tel":"",
     "site":"https://www.instagram.com/yosun.dang/"
  },
  {
     "title":"ì†¡í¬ì–´ìŠ¤",
     "info":"ì¹œí™˜ê²½ íŒë§¤ì™€ ì†Œë¹„ë¥¼ ì•ì¥ì„œ ì¶”ì§„í•˜ê³ ì í•˜ëŠ” ì œë¡œ ì›¨ì´ìŠ¤íŠ¸ ìƒµ ",
     "lat":37.533405,
     "lng":127.125461,
     "rat":5.0,
     "address":"ì„œìš¸ ê°•ë™êµ¬ í’ì„±ë¡œ35ê¸¸ 34 1ì¸µ (ì„±ë‚´ë™)",
     "tel":"070-8095-3534",
     "site":"https://www.instagram.com/song_for_earth/"
  },
  {
     "title":"ë””ì–´ì–¼ìŠ¤",
     "info":"ìì—°ì— ê°€í•´ì§€ëŠ” í”¼í•´ë¥¼ '0'ìœ¼ë¡œ ë§Œë“¤ê¸° ìœ„í•´ ë…¸ë ¥í•˜ëŠ” ì œë¡œì›¨ì´ìŠ¤íŠ¸ ë¼ì´í”„ìŠ¤íƒ€ì¼ ë¸Œëœë“œ",
     "lat":37.56966,
     "lng":126.913439,
     "rat":5.0,
     "address":"ì„œìš¸ ì„œëŒ€ë¬¸êµ¬ ìˆ˜ìƒ‰ë¡œ 43 104í˜¸ (ë‚¨ê°€ì¢Œë™)",
     "tel":"070-4485-3388",
     "site":"https://dearearth.co.kr/"
  },
  {
     "title":"ì•Œë§¹ìƒì ",
     "info":"í”Œë¼ìŠ¤í‹± ì—†ëŠ” ì„¸ìƒì„ ê¿ˆê¾¸ëŠ” ì„¸ì œ ë¦¬í•„ìŠ¤í…Œì´ì…˜",
     "lat":37.553605,
     "lng":126.911597,
     "rat":4.9,
     "address":"ì„œìš¸ ë§ˆí¬êµ¬ ì›”ë“œì»µë¡œ 49 2ì¸µ (í•©ì •ë™)",
     "tel":"010-2229-1027",
     "site":"https://almang.modoo.at/"
  },
  {
     "title":"ì§€êµ¬ìƒµ",
     "info":"ì§€êµ¬ë¥¼ ìœ„í•œ ë‚­ë¹„ì—†ëŠ” ê°€ê²Œ ì œë¡œì›¨ì´ìŠ¤íŠ¸ ì „ë¬¸ í¸ì§‘ë¸Œëœë“œ",
     "lat":37.500737,
     "lng":126.933859,
     "rat":4.3,
     "address":"ì„œìš¸ ë™ì‘êµ¬ ì„±ëŒ€ë¡œ1ê¸¸ 16 1ì¸µ (ìƒë„ë™)",
     "tel":"02-812-2050",
     "site":"https://www.jigushop.co.kr/"
  },
  {
     "title":"ë”í”¼ì»¤",
     "info":"ê±´ê°•í•œ ì†Œë¹„ê°€ ë§Œë“œëŠ” ê±´ê°•í•œ ì§€êµ¬ â–«ï¸ì œë¡œì›¨ì´ìŠ¤íŠ¸ ë¼ì´í”„ìŠ¤íƒ€ì¼ í”Œë«í¼",
     "lat":37.547875,
     "lng":127.044105,
     "rat":4.0,
     "address":"ì„œìš¸ ì„±ë™êµ¬ ì™•ì‹­ë¦¬ë¡œ 115 í—¤ì´ê·¸ë¼ìš´ë“œ 9ì¸µ (ì„±ìˆ˜ë™1ê°€)",
     "tel":"070-4118-0710",
     "site":"https://thepicker.net/"
  }
]
